[
  {
    "finish_date": "2019-01-04", 
    "country": "ISR", 
    "address": "Tiberias", 
    "longitude": 35.530973, 
    "slug": "_c338", 
    "date": "2019-01-04", 
    "full_name": "National Road Races Championships (Tiberias Winner Marathon )", 
    "year": 2019, 
    "latitude": 32.795859, 
    "type": "ROAD", 
    "id": "c338ce3a-dcd6-4275-b0f3-0491e72b18b6"
  }, 
  {
    "finish_date": "2019-01-05", 
    "country": "PRT", 
    "address": "Faro", 
    "longitude": -7.9304397, 
    "slug": "_ca7f", 
    "date": "2019-01-05", 
    "full_name": "Grande Premio dos Reis", 
    "year": 2019, 
    "latitude": 37.0193548, 
    "type": "ROAD", 
    "id": "ca7ff191-f1fe-40a8-9eb1-d9b54a48d78a"
  }, 
  {
    "finish_date": "2019-01-06", 
    "country": "GBR", 
    "address": "Sheffield", 
    "longitude": -1.470085, 
    "slug": "_73c1", 
    "date": "2019-01-05", 
    "full_name": "National Combined Events Indoor Championships (England / Welsh Athletics CE)", 
    "year": 2019, 
    "latitude": 53.38112899999999, 
    "type": "INDOOR", 
    "id": "73c19f86-9669-45c9-8252-e04fcdbdbd64"
  }, 
  {
    "finish_date": "2019-01-05", 
    "country": "CYP", 
    "address": "Nicosia", 
    "longitude": 33.38227639999999, 
    "slug": "_f436", 
    "date": "2019-01-05", 
    "full_name": "National Cross Country Championships (Cross Country)", 
    "year": 2019, 
    "latitude": 35.1855659, 
    "type": "CROSSCOUNTRY", 
    "id": "f43675fd-45ae-454b-9697-ad6cfe27d8dd"
  }, 
  {
    "finish_date": "2019-01-05", 
    "country": "DEU", 
    "address": "J\u00fcgesheim", 
    "longitude": 8.882987, 
    "slug": "_ad8b", 
    "date": "2019-01-05", 
    "full_name": "Road Race 10km", 
    "year": 2019, 
    "latitude": 50.026236, 
    "type": "ROAD", 
    "id": "ad8b4664-8e53-48ea-ad9b-16cca4fcd263"
  }, 
  {
    "finish_date": "2019-01-06", 
    "country": "ESP", 
    "address": "Amorebieta-Etxano", 
    "longitude": -2.7330533, 
    "slug": "_cb72", 
    "date": "2019-01-06", 
    "full_name": "65th Cross International Zornotza", 
    "year": 2019, 
    "latitude": 43.2204714, 
    "type": "CROSSCOUNTRY", 
    "id": "cb72f55b-7c61-4e30-874e-c2ff97e5bd00"
  }, 
  {
    "finish_date": "2019-01-06", 
    "country": "TUR", 
    "address": "Adana", 
    "longitude": 35.3308285, 
    "slug": "_36a3", 
    "date": "2019-01-06", 
    "full_name": "9th Adana Half Marathon", 
    "year": 2019, 
    "latitude": 36.9914194, 
    "type": "ROAD", 
    "id": "36a34f48-ef69-4a78-864a-14cf5caa7d85"
  }, 
  {
    "finish_date": "2019-01-06", 
    "country": "ITA", 
    "address": "San Giorgio su Legnano", 
    "longitude": 8.9156394, 
    "slug": "_e4e2", 
    "date": "2019-01-06", 
    "full_name": "Campaccio International Cross Country", 
    "year": 2019, 
    "latitude": 45.5782061, 
    "type": "CROSSCOUNTRY", 
    "id": "e4e2d565-a8bb-46ee-b9ed-d97d49051510"
  }, 
  {
    "finish_date": "2019-01-06", 
    "country": "ESP", 
    "address": "Amorebieta", 
    "longitude": -2.7330533, 
    "slug": "_15b4", 
    "date": "2019-01-06", 
    "full_name": "Cross Internacional Zornotza", 
    "year": 2019, 
    "latitude": 43.2204714, 
    "type": "CROSSCOUNTRY", 
    "id": "15b453d5-fcb3-422c-8d04-f9479136dc67"
  }, 
  {
    "finish_date": "2019-01-06", 
    "country": "DEU", 
    "address": "Clarholz", 
    "longitude": 8.2179906, 
    "slug": "_7cd3", 
    "date": "2019-01-06", 
    "full_name": "Int. Springer-Meeting", 
    "year": 2019, 
    "latitude": 51.88438590000001, 
    "type": "INDOOR", 
    "id": "7cd3ab11-17d2-4f06-8be8-03f0a961a7af"
  }
]